{
    "miners": [
        "1CkDgTHd3VtR1jPPaRwH4Q2C7mzqFn8bpE",
        "1Ha7zioXrPiSTJhwZHUt5f3KDQms8pHYVM",
        "16fLQTbyvoM1j3S8Bf8f2gGcP4gYkwv8QL",
        "1DLgTSPrJFk78sG1fswHaisVreg3pFw7ij"
    ],
    "candidates": [
        "1CkDgTHd3VtR1jPPaRwH4Q2C7mzqFn8bpE",
        "1Ha7zioXrPiSTJhwZHUt5f3KDQms8pHYVM",
        "16MUyL5CbQs2wQMyzKiccoRfWALz1ySqFB",
        "18XD3AFDNQJ6wdX1sH1Co8tq2yjDG25bm3",
        "1FVJPVNmUjSVa4psmE4CeRhzM32TogL5e5",
        "1FaNqJQSHHw3R2k1e5oPmxGZEHBgAkxUyj",
        "135xQBv3yRjrvbNxmPWLkyAuzBjbmhZXRA",
        "18fuDyHpEvuc9c4MrD2WVwG8myDz68LrXZ",
        "16fLQTbyvoM1j3S8Bf8f2gGcP4gYkwv8QL",
        "1JuVzsFYRDGTq1XC4W7ZoxjPZGwYzXiAJf",
        "132er5SMr1HmuhYAEbDMSBNG68349mHraN",
        "1NDbFzzvw7XVMY6UNsrzgSziMtZkMFStZh",
        "15BpBEbocpFJvfHcrYa2thzMEpMkbjL39H",
        "1DLgTSPrJFk78sG1fswHaisVreg3pFw7ij",
        "1Fe7mnuwDhBcdTF9peY1wFP7yxLX9kdWkn"
    ],
    "candidatesInfo": [
        {
            "address": "1CkDgTHd3VtR1jPPaRwH4Q2C7mzqFn8bpE",
            "name": "Shepherd-1",
            "ip": "139.217.133.187",
            "url": "http://x.yz",
            "location": "Shanghai"
        },
        {
            "address": "1Ha7zioXrPiSTJhwZHUt5f3KDQms8pHYVM",
            "name": "Shepherd-2",
            "ip": "139.217.129.248",
            "url": "http://y.xz",
            "location": "Shanghai"
        },
        {
            "address": "16MUyL5CbQs2wQMyzKiccoRfWALz1ySqFB",
            "name": "Shepherd-3",
            "ip": "139.219.141.143",
            "url": "http://y.xz",
            "location": "Shanghai"
        },
        {
            "address": "18XD3AFDNQJ6wdX1sH1Co8tq2yjDG25bm3",
            "name": "Shepherd-4",
            "ip": "40.73.1.14",
            "url": "http://y.xz",
            "location": "Beijing"
        },
        {
            "address": "1FVJPVNmUjSVa4psmE4CeRhzM32TogL5e5",
            "name": "Shepherd-5",
            "ip": "42.159.142.77",
            "url": "http://y.xz",
            "location": "Shanghai"
        },
        {
            "address": "1FaNqJQSHHw3R2k1e5oPmxGZEHBgAkxUyj",
            "name": "Shepherd-6",
            "ip": "139.219.140.66",
            "url": "http://y.xz",
            "location": "Shanghai"
        },
        {
            "address": "135xQBv3yRjrvbNxmPWLkyAuzBjbmhZXRA",
            "name": "Shepherd-7",
            "ip": "42.159.146.24",
            "url": "http://y.xz",
            "location": "Shanghai"
        },
        {
            "address": "18fuDyHpEvuc9c4MrD2WVwG8myDz68LrXZ",
            "name": "Shepherd-8",
            "ip": "139.219.136.185",
            "url": "http://y.xz",
            "location": "Shanghai"
        },
        {
            "address": "16fLQTbyvoM1j3S8Bf8f2gGcP4gYkwv8QL",
            "name": "Shepherd-9",
            "ip": "139.217.128.110",
            "url": "http://y.xz",
            "location": "Shanghai"
        },
        {
            "address": "1JuVzsFYRDGTq1XC4W7ZoxjPZGwYzXiAJf",
            "name": "Shepherd-10",
            "ip": "42.159.205.113",
            "url": "http://y.xz",
            "location": "Shanghai"
        },
        {
            "address": "132er5SMr1HmuhYAEbDMSBNG68349mHraN",
            "name": "Shepherd-11",
            "ip": "139.217.84.58",
            "url": "http://y.xz",
            "location": "Beijing"
        },
        {
            "address": "1NDbFzzvw7XVMY6UNsrzgSziMtZkMFStZh",
            "name": "Shepherd-12",
            "ip": "42.159.111.123",
            "url": "http://y.xz",
            "location": "Beijing"
        },
        {
            "address": "15BpBEbocpFJvfHcrYa2thzMEpMkbjL39H",
            "name": "Shepherd-13",
            "ip": "139.219.133.15",
            "url": "http://y.xz",
            "location": "Shanghai"
        },
        {
            "address": "1DLgTSPrJFk78sG1fswHaisVreg3pFw7ij",
            "name": "Shepherd-14",
            "ip": "139.217.95.231",
            "url": "http://y.xz",
            "location": "Beijing"
        },
        {
            "address": "1Fe7mnuwDhBcdTF9peY1wFP7yxLX9kdWkn",
            "name": "Shepherd-15",
            "ip": "139.219.9.33",
            "url": "http://y.xz",
            "location": "Beijing"
        }
    ],
    "coinbase": "12xsw7p8M6CQqMq8ryTZ8Se52ytBdX5YQk",
    "preBalances": [
        {
            "address": "1CkDgTHd3VtR1jPPaRwH4Q2C7mzqFn8bpE",
            "amount": 5000000
        },
        {
            "address": "1Ha7zioXrPiSTJhwZHUt5f3KDQms8pHYVM",
            "amount": 5000000
        },
        {
            "address": "16MUyL5CbQs2wQMyzKiccoRfWALz1ySqFB",
            "amount": 5000000
        },
        {
            "address": "18XD3AFDNQJ6wdX1sH1Co8tq2yjDG25bm3",
            "amount": 5000000
        },
        {
            "address": "1FVJPVNmUjSVa4psmE4CeRhzM32TogL5e5",
            "amount": 5000000
        },
        {
            "address": "1FaNqJQSHHw3R2k1e5oPmxGZEHBgAkxUyj",
            "amount": 5000000
        },
        {
            "address": "135xQBv3yRjrvbNxmPWLkyAuzBjbmhZXRA",
            "amount": 5000000
        },
        {
            "address": "18fuDyHpEvuc9c4MrD2WVwG8myDz68LrXZ",
            "amount": 5000000
        },
        {
            "address": "16fLQTbyvoM1j3S8Bf8f2gGcP4gYkwv8QL",
            "amount": 5000000
        },
        {
            "address": "1JuVzsFYRDGTq1XC4W7ZoxjPZGwYzXiAJf",
            "amount": 5000000
        },
        {
            "address": "132er5SMr1HmuhYAEbDMSBNG68349mHraN",
            "amount": 5000000
        },
        {
            "address": "1NDbFzzvw7XVMY6UNsrzgSziMtZkMFStZh",
            "amount": 5000000
        },
        {
            "address": "15BpBEbocpFJvfHcrYa2thzMEpMkbjL39H",
            "amount": 5000000
        },
        {
            "address": "1DLgTSPrJFk78sG1fswHaisVreg3pFw7ij",
            "amount": 5000000
        },
        {
            "address": "1Fe7mnuwDhBcdTF9peY1wFP7yxLX9kdWkn",
            "amount": 5000000
        },
        {
            "address": "12xsw7p8M6CQqMq8ryTZ8Se52ytBdX5YQk",
            "amount": 25000000
        },
        {
            "address": "1J56EZLwr8WDAyQFHgnS2qMkvcpiFLV7KG",
            "amount": 700000000
        },
        {
            "address": "1DKjkA25NdKZLFTcZShEK5focvsQnixZPR",
            "amount": 200000000
        },
        {
            "address": "1BKSyFf2AYrpakDGMszMcDYzbPNGXqjSwm",
            "amount": 90300000
        },
        {
            "address": "13CRbUJd2oj8p2rwDaREAVdQp188KbovmF",
            "amount": 209700000
        },
        {
            "address": "12tboZTsDmTNY4jTxXwCz3J7yAb7wVQh7o",
            "amount": 5000000
        },
        {
            "address": "1F7HszE1u87tfviKB6oqgbDresi7TkNrK9",
            "amount": 5000000
        },
        {
            "address": "12Zu3GxT3X7APS7JaLwPGbZTzbazScsH4F",
            "amount": 5000000
        },
        {
            "address": "1HohWCzQdvRXocT249HVEaFC1uxVBqrZFG",
            "amount": 5000000
        },
        {
            "address": "191YAK1qaJ2Nw9A1a13sWNyyaDYX4EoXYo",
            "amount": 5000000
        },
        {
            "address": "13p3vajS28yxG2ZobQzQCHp8MiKRkiB2Rv",
            "amount": 5000000
        },
        {
            "address": "1FusZ7ohVjgNT6Cbdaj1NBKFVQUAJ1pZLL",
            "amount": 5000000
        },
        {
            "address": "1GUC2E5bRHfuCZXz9qcc1TL4t2UPd4bmXG",
            "amount": 5000000
        },
        {
            "address": "1DQM7beTUrEC3oYUuZwGcgDftTvH5wUV1S",
            "amount": 5000000
        },
        {
            "address": "15uEyrMN4JHAqSV2h4MHEcjH6X5hZVnKxy",
            "amount": 5000000
        },
        {
            "address": "115j8srRVcFrbFSpapBCgwbZpn39DQGPYe",
            "amount": 5000000
        },
        {
            "address": "16U9vdKqGegE1tcdfdKXJ1vqj35obUVbA2",
            "amount": 5000000
        },
        {
            "address": "12B643MN9Kt3QhPA5uoS2KkCLLEXDcQeqZ",
            "amount": 5000000
        },
        {
            "address": "12zU3jVQocFFUHw9hdK2KpFsDg3uEM1XgP",
            "amount": 5000000
        },
        {
            "address": "17MSgz9vGPNS8jrnjY9rMMnDqvVVivvwkV",
            "amount": 5000000
        },
        {
            "address": "16herBuSAd9aLA7ashD8d8fYdZ7q1gBRDL",
            "amount": 5000000
        },
        {
            "address": "1QKeQG5TTw142W6uEeTpgzsZbCZLX74qBg",
            "amount": 5000000
        },
        {
            "address": "1FwoqDfvxoVLJrW4oNoVtPBf2FbEtFefki",
            "amount": 5000000
        },
        {
            "address": "173Ln8uLLbAJnjwpUE3SAst5BBCvB952sQ",
            "amount": 5000000
        },
        {
            "address": "15KeZNNEWhjfosP6JrzTFzyQu7RsWRrDns",
            "amount": 5000000
        },
        {
            "address": "17sGSbC5TEjCjwAAPwez9vEuKqsSu9brXD",
            "amount": 25000000
        },
        {
            "address": "155RyhLR3Q7sYMTJ1E7cc7VZEqkyTQLPPe",
            "amount": 25000000
        },
        {
            "address": "13swLa5tWDoatcgWkxSkxHk5neNzuWVeFa",
            "amount": 25000000
        },
        {
            "address": "1DXZnPw3hgMbZjSUxfUKG5UMrqiicGdTD",
            "amount": 25000000
        },
        {
            "address": "1KxUh9uaALeHqLjFu7sfqxSrhzzcKhYN7Z",
            "amount": 25000000
        },
        {
            "address": "14T59JQULHG9TeCKVupax7FXFgo2VQQnDr",
            "amount": 25000000
        },
        {
            "address": "1Mb3JR1U8FaY9h2dtJ7QP64GrCYQjRU35n",
            "amount": 25000000
        },
        {
            "address": "173TD671DUCuafPE8J33wpxrfWCn9EZ7So",
            "amount": 25000000
        },
        {
            "address": "1Ke9FgAkVQdA4kceQC8hEsTmchVi41fK1Q",
            "amount": 25000000
        },
        {
            "address": "1KM9UfwbXriw6nFk1sF11W1Wn4YwAKNRYw",
            "amount": 25000000
        },
        {
            "address": "1D9PDng4GMvxupPbz2qLdNef6JEPYKPC5q",
            "amount": 25000000
        },
        {
            "address": "1JxdswatftGD8yhfX3z1d9sJswnUeS1Lfe",
            "amount": 25000000
        },
        {
            "address": "12RKReUeTfhrGQRwCqqjHDrAAegjj5UX4G",
            "amount": 25000000
        },
        {
            "address": "19tkZhRm4uoA5JrRfizjTjhPfXZ9ef5cZv",
            "amount": 25000000
        },
        {
            "address": "16fCxihMAsfcJMDH8gWEcZA29iVrVWW7qj",
            "amount": 25000000
        },
        {
            "address": "165AC1ZoDtAKVzuq4UfNm7PTUXvooLU6Kk",
            "amount": 25000000
        },
        {
            "address": "1NMzeswyBvemRKQfeRxH3CPFARpivMQJDY",
            "amount": 25000000
        },
        {
            "address": "148UBn7dA2buC7gvaaebeA9a93kcMaYJgF",
            "amount": 25000000
        },
        {
            "address": "15jFPz2PnVhs6kqcmpTLPZ24ja2h7tFpjf",
            "amount": 25000000
        },
        {
            "address": "18aHYQCNpuRCgUzjffXzdUM8AHYyZgQJmX",
            "amount": 25000000
        },
        {
            "address": "18Qji8EUTFB1spKbQBsEkCfLtG9HaCJAHS",
            "amount": 500000
        },
        {
            "address": "1Mfuo7D8itS1zYarCMHNZtqVg1wnDH6NeX",
            "amount": 500000
        },
        {
            "address": "1PKQ5HW1yw4PFUTeiATbycYdFidGfCS4k7",
            "amount": 500000
        },
        {
            "address": "19uH8KoHCW96k381CDsRyJsu5C51SD3nMp",
            "amount": 500000
        },
        {
            "address": "1GpPwk2AWZkv4979JwFzXiLjSgALvsTSgf",
            "amount": 500000
        },
        {
            "address": "1N7YdskLdyTazUQFryUp8fCuMoL8mepoQm",
            "amount": 500000
        },
        {
            "address": "12KVdrpzFuzhGSVRgZSSX1ULHB7hJemRxF",
            "amount": 500000
        },
        {
            "address": "16Pa6EBowXnibtQfLzCpfHVZM63YscbAVc",
            "amount": 500000
        },
        {
            "address": "1MjBKtMTeThr4qCkBT3m5jfPN7ukQsb1m9",
            "amount": 500000
        },
        {
            "address": "1Bxb4Nj3nqnP9ePfKGbSakJxPSHgudHPaG",
            "amount": 500000
        },
        {
            "address": "1NDrQn67W6giXNgxyadQteA45g46vYr8aL",
            "amount": 500000
        },
        {
            "address": "1J9T4PdAqc1r45RohKtW8PoScSDpcTwQqp",
            "amount": 500000
        },
        {
            "address": "1E9g2RfzRC4VrE8TYqsqXWjkHdow2oUCN6",
            "amount": 500000
        },
        {
            "address": "137qeVBtmVhHFbvaDzz7EHRs9BYBPRqVMo",
            "amount": 500000
        },
        {
            "address": "19VUVi43y2L1SUFaZTfya8GHWioZsBnDvm",
            "amount": 500000
        },
        {
            "address": "1HfVaCMBWzrUjzFCbShaoPiufPckXBX1An",
            "amount": 500000
        },
        {
            "address": "15NAjbXVEWWYD5xGih3Xzn9tVzPXLnW4ft",
            "amount": 500000
        },
        {
            "address": "1KxPzrqgX5iS1twiYQiXLYQCAsCRv2tbyv",
            "amount": 500000
        },
        {
            "address": "1LvKQsMWHxdey9B99pDsygESKLXyXvNc8v",
            "amount": 500000
        },
        {
            "address": "13yuTuWnpXzXj1kAib3rN79BGerznevS7k",
            "amount": 500000
        },
        {
            "address": "1CWDMaGYTRZeQBT2j7cFmbV2FEP2gkCTff",
            "amount": 500000
        },
        {
            "address": "1KR12MvAC7BaypCknYRCF7vo18kN1aVEQ6",
            "amount": 500000
        },
        {
            "address": "133cQdpCNEeUWBcm7e3n2HA4Ur5VgpDVqx",
            "amount": 500000
        },
        {
            "address": "1NwWtfEFsck96FmG4V6VT2vXKv1mwx1jeh",
            "amount": 500000
        },
        {
            "address": "1KXpShVDhut4Sxd9Lw5zVzi12Kqmbz9ZzY",
            "amount": 500000
        },
        {
            "address": "1294NtJ8Rhg9wirJrSusgMx5Nfew3nnphx",
            "amount": 500000
        },
        {
            "address": "1DUb9bT5RRVKv1WfinfuEmV8CwEoa1txDz",
            "amount": 500000
        },
        {
            "address": "19cZqsSzeaNKriCwqhc7hoUKmDN3GbTTx1",
            "amount": 500000
        },
        {
            "address": "1NxTsKC48HUyUJkUQQkH1wWuAorqiJ9otK",
            "amount": 500000
        },
        {
            "address": "172JDcjbf8S2CqJxXbWm8nDkk9XBPtF34e",
            "amount": 500000
        },
        {
            "address": "1NjCwphmgfKXaW8BEudLgGk5Ahi15CWSUv",
            "amount": 500000
        },
        {
            "address": "18XTmhRfBfuD6KzfggFruPAKTopcS5BETx",
            "amount": 500000
        },
        {
            "address": "18jd9Pm2yCa7GK33G8fJA81zViLTPFHs1p",
            "amount": 500000
        },
        {
            "address": "1FB36Wc5Tpdc1PbwofNzCynvAWjAAKhyjo",
            "amount": 500000
        },
        {
            "address": "1Ms3b2M6odYomV37AGrKEnoseTT8T8MMpA",
            "amount": 500000
        },
        {
            "address": "1DuMiQ3jfFqknGvjPfs9Vz6ERkEk9SnXDS",
            "amount": 500000
        },
        {
            "address": "1FET45JGMXhYmxCYSWem5SHTidKHVThwDw",
            "amount": 500000
        },
        {
            "address": "15H6hCkTrv1DvodyuXSdwUfvh3oRcTp9Mm",
            "amount": 500000
        },
        {
            "address": "1CSq7LRGRsD1UXs1dd3FmsABiKCCXo3JDQ",
            "amount": 500000
        },
        {
            "address": "1GDGqQqN6d4eG31x9oogGFudUViMhAJVrR",
            "amount": 500000
        },
        {
            "address": "15xk58yQ6Kwqu2m6sPqcrfXqAFDqyvFa6p",
            "amount": 500000
        },
        {
            "address": "1FmjuM2nEKMd62xKTBk1zqCfinrG6bpgyR",
            "amount": 500000
        },
        {
            "address": "18kw5Q6sSZKwpkidnf5QhT9PKP2vKWBdN6",
            "amount": 500000
        },
        {
            "address": "1C35PkmdgKYf35zb4vN9AhSzEYGdPWe1WH",
            "amount": 500000
        },
        {
            "address": "1DNqmhioTwSR3BsfGsZqnm27tJYARZnQsM",
            "amount": 500000
        },
        {
            "address": "17sm5GJGGuUepxNJVXtWt1AAciNz4KvNpg",
            "amount": 500000
        },
        {
            "address": "1CKTBdV7E8DfRPSknLLvLfgWqnrfeFWLGx",
            "amount": 500000
        },
        {
            "address": "1HVt6HR21g1YAziyDSs6yhd2P2MfRYu6iV",
            "amount": 500000
        },
        {
            "address": "1KbiehdSSfjrCnUrXAY8pwysxxju18XvvQ",
            "amount": 500000
        },
        {
            "address": "1En2f9PWPRUkdDNT7ku9T948c2suUYZomV",
            "amount": 500000
        },
        {
            "address": "1C8ZoDGbZJ4bYivKn58WHVcgm47nJjiWx9",
            "amount": 500000
        },
        {
            "address": "1HccTZ81991FY5CtWmAXtV3MwuUhArBkUL",
            "amount": 500000
        },
        {
            "address": "1K9Uygfqv86uvG7RU2UHRqsJz68eCUarUZ",
            "amount": 500000
        },
        {
            "address": "1DaEPFA22emA6rKwcWoMsiktbbtAo96EBf",
            "amount": 500000
        },
        {
            "address": "1NCymaeG3uS5DqfBSnmvJgSWiQryu78j3U",
            "amount": 500000
        },
        {
            "address": "13cXiQRuBQuM4MrVZTWY5QvKF1pYcb158S",
            "amount": 500000
        },
        {
            "address": "1HfGecdfMurMLfRn5dns9NxpftLJK2Ucdv",
            "amount": 500000
        },
        {
            "address": "1Qv7L6RJL5uPsyAtLK5ACyi9nNT1dYosU",
            "amount": 500000
        },
        {
            "address": "1Cw5nK9RaRFXmPjsMc26J9XnZz2GS2dbGk",
            "amount": 500000
        },
        {
            "address": "1C7amjMDMHN2G7aeYTibkbunfaF9N9nw1z",
            "amount": 500000
        },
        {
            "address": "1APunAcc1mBpFnpJBSDuq1QxC4aQt8xShf",
            "amount": 500000
        },
        {
            "address": "17phtSwFtYxWhkQLYADqAvYctXeqYMKAue",
            "amount": 500000
        },
        {
            "address": "1FP2G11XmVB4WSBvKMyeXg3NwDpE9n2Fk8",
            "amount": 500000
        },
        {
            "address": "19oPrrdFtWzbG1xKx9DaHPc6JAJ5A61A9R",
            "amount": 500000
        },
        {
            "address": "17DrDZbSMDXxLDvuGuzpzRhSfMaiA6nkCb",
            "amount": 500000
        },
        {
            "address": "18cTGYYvpbL3XaDBfKaVkstPfNd5VuXhbB",
            "amount": 500000
        },
        {
            "address": "16s7hVTnCtdBNHRhAXRBD1qMipx8R7BDQH",
            "amount": 500000
        },
        {
            "address": "1JC3EndnSD1B43WemgtSuc63QsX1vruowx",
            "amount": 500000
        },
        {
            "address": "1HUkH7xVvkqWheQoijQX4ZFQCyGTaDsL7K",
            "amount": 500000
        },
        {
            "address": "1FMtUaitsmXaZKvikcQJvz1KobkeueK5YJ",
            "amount": 500000
        },
        {
            "address": "1HhDzeaBDVxociRh2WDYAKB8SbPGeQ5bLQ",
            "amount": 500000
        },
        {
            "address": "1LBGQrcCTSETn5Drw9SPVmNRW5UKJ6s7Sr",
            "amount": 500000
        },
        {
            "address": "1KYv3Yh6KokezHssb6peuCFpy1GyiFEC9p",
            "amount": 500000
        },
        {
            "address": "15tZfV2a8skwyzBh4fHAjwnk8k4nCUJZgS",
            "amount": 500000
        },
        {
            "address": "17Qq4GQ4Z5NTkkUTAgV3CMw4LveMjGhGhw",
            "amount": 500000
        },
        {
            "address": "1JYUQx8YyUPrmRCComY99of34K5QrZtfjf",
            "amount": 500000
        },
        {
            "address": "1Cse2mEA4zKuej6PU59iqU7VfcFnnX9EuU",
            "amount": 500000
        },
        {
            "address": "18FXwXyKzZpvh1JUv7WgX73pGCqNetwCmT",
            "amount": 500000
        },
        {
            "address": "18VfdNEYMfhftgKso5A2pBvP8j4LHinRxi",
            "amount": 500000
        },
        {
            "address": "176KJwuC2HF322qBZibvBtssNHSxNvFUKp",
            "amount": 500000
        },
        {
            "address": "115KTDcw6Rxr8qyiP7NRenBKgF4x8duPag",
            "amount": 500000
        },
        {
            "address": "1PYTumJ5JVtcY9UknJaYFgs5ubVBUN259Q",
            "amount": 500000
        },
        {
            "address": "1LUW2Rez39wPoVy5BCFPLzNksZz79Kx2Hx",
            "amount": 500000
        },
        {
            "address": "19jw6KWweENpUu1Pkb7q2zoUH1mE1DdB4N",
            "amount": 500000
        },
        {
            "address": "1ESdbVx1v99UQUCaYTDBiaKQB3yuPPhdLN",
            "amount": 500000
        },
        {
            "address": "1GqgPcZbE1Ls9MyLQzw4TjqDEjipc6b5zh",
            "amount": 500000
        },
        {
            "address": "1G2Erp2y4MJDkwWXHYfMS7H38ozVg211tj",
            "amount": 500000
        },
        {
            "address": "18MpWUVXzinRXAQmXFTTbZrDTqrowmyk3w",
            "amount": 500000
        },
        {
            "address": "1Q3VjKRRnTRm5UwYbcuKD7sWu9rhdKoNDe",
            "amount": 500000
        },
        {
            "address": "19RxRzjHRMmrjne3j3S9B95mxR2EoevCDQ",
            "amount": 500000
        },
        {
            "address": "1Bn48cTHM2s2Qm79W7F7pw2p6482NoCYG4",
            "amount": 500000
        },
        {
            "address": "1NEE4kZKh9YusxvPpkXkTzCHFjkQXgi5YA",
            "amount": 500000
        },
        {
            "address": "17qkfW1uDrqKwaeLYdqsi4zY9QZ8d3f1fz",
            "amount": 500000
        },
        {
            "address": "12ShCLVTeJ5EJr7MLsChrcuDeL3zRWnJzf",
            "amount": 500000
        },
        {
            "address": "13MbdBAj9h4UpdYFXA6JjmeLsCArpSfN2m",
            "amount": 500000
        },
        {
            "address": "1AEvMuJACs9b67fT9tMfJf9nSHbP4C91j9",
            "amount": 500000
        },
        {
            "address": "1EhJFByUyLYvrd3r4yRb4AyJoA8C7PhVrh",
            "amount": 500000
        },
        {
            "address": "1B9UKBejsgYhH1t3RvMHNXzaUYcG9XC1Ft",
            "amount": 500000
        },
        {
            "address": "12X1BtDnVgQYQdeGjUZPZUsiWdSgM4rWqp",
            "amount": 500000
        },
        {
            "address": "19mg9L7KB9a24PfydLSQ7TPbtsjztQEUpn",
            "amount": 500000
        },
        {
            "address": "12HU6cWBGkVW3A6YRED57JcLGdKdoKUje3",
            "amount": 500000
        },
        {
            "address": "1LbugUWREhhoqCrqGqSGLq4oeGxv4k3B3Q",
            "amount": 500000
        },
        {
            "address": "14tCEuueDeRckWJxdCWVwdPtyADhBg7JNh",
            "amount": 500000
        },
        {
            "address": "19cDvkXDTEWxymJLq5MVLCjoSfx556HCjT",
            "amount": 500000
        },
        {
            "address": "19EEaCtKo8oXMQUvXHnhqr4QyQvtaB568e",
            "amount": 500000
        },
        {
            "address": "1AEuSWC4PBhhQ4hB4jgF33C8Yg8AFpdHwD",
            "amount": 500000
        },
        {
            "address": "1AsmvRw5tceiw2PBukqY1pb1t3XnjiDm6t",
            "amount": 500000
        },
        {
            "address": "1EPhSWMmdCMXqsEFqoihv9N2HUkr7K62W6",
            "amount": 500000
        },
        {
            "address": "12bqonTuN5goHxUaxc4pxSWNY8vzg1zCR2",
            "amount": 500000
        },
        {
            "address": "18jeBS6aEN8zmL43MFx4jC4uVz7KXaUTwE",
            "amount": 500000
        },
        {
            "address": "1MqewQDVa7MG2Pc8vFbbxNdvxe8Kc9E9H9",
            "amount": 500000
        },
        {
            "address": "1CQDK6hdpCU6eddcAYtmScNgzjzMAPusro",
            "amount": 500000
        },
        {
            "address": "1GLvs6sHv15EmsamVT5LsPQxb5fUshoKEM",
            "amount": 500000
        },
        {
            "address": "1Mtc1eowQRW7FUDfjvVHyt2VUiUFy33yXm",
            "amount": 500000
        },
        {
            "address": "1DLwQKagAEyT724uaviS4RyD47ezMkUbeY",
            "amount": 500000
        },
        {
            "address": "1PqkDHJgT6MdzYksRRV4VnRoa6B6w2cseN",
            "amount": 500000
        },
        {
            "address": "15HS7TMVyNWLiFqpfC3Zo3qRGBRmkQq4b9",
            "amount": 500000
        },
        {
            "address": "1QFJMdU3YDH8UYgNzMPueBHLMjuDR3VUwg",
            "amount": 500000
        },
        {
            "address": "1C2YZ46aiqyqtdwnsJmVYa5whpeAEt9NMg",
            "amount": 500000
        },
        {
            "address": "1DVkh9mBtwY9Xkrgthjyxn43X1pNydAv3s",
            "amount": 500000
        },
        {
            "address": "1PAbH8FoQUcGeokMeD2ixuf5Q3tUZgif12",
            "amount": 500000
        },
        {
            "address": "1KgiHi5SJwvsTyy42BHfruvXTXUTrPtE77",
            "amount": 500000
        },
        {
            "address": "1BFZ7z5WMRsVLmgEC341niezegVjChXve3",
            "amount": 500000
        },
        {
            "address": "1K3ghYAwV1ziR4NE2sTYRcfUu2Hrdm2Qvm",
            "amount": 500000
        },
        {
            "address": "18CsHMj8RZjNWtmKeUEwSCyrDoZAhMwgHf",
            "amount": 500000
        },
        {
            "address": "1BEFiD61eghx6YRCN96z8pSbUMHvAnSBJG",
            "amount": 500000
        },
        {
            "address": "1MX5TSHh8dYKPLHAfUSYCyLPm2UNNmSXag",
            "amount": 500000
        },
        {
            "address": "1KEgFEQedCjnTgfn2L83UgXbGsCPo4DQB4",
            "amount": 500000
        },
        {
            "address": "12zoyMF4iuqa1f17vAywW6af9vUjG4Qpeg",
            "amount": 500000
        },
        {
            "address": "1EbhwA7WhkEGtWyAUJLZiYC8kPzG8uXDcQ",
            "amount": 500000
        },
        {
            "address": "14Tg97knAAJD9NMDbrY3N2tVttzMh54cid",
            "amount": 500000
        },
        {
            "address": "1EhWMS6cCeQhzHXGhULapa3ZEVE87XgqBq",
            "amount": 500000
        },
        {
            "address": "1BiYETD9Sh6eLHz4E5tNeVqucQVdTptStB",
            "amount": 500000
        },
        {
            "address": "1CEbVb2fKaGPfrJBMzjwNPX4yUznVDY9vq",
            "amount": 500000
        },
        {
            "address": "13wdA2QVgxkrXkZieJ9S6ZWdGJfsA9bgUN",
            "amount": 500000
        },
        {
            "address": "122c6YUeLULCH6mXgshE8QpLUyB7LBa9Ea",
            "amount": 500000
        },
        {
            "address": "1G9mmfC86rpnFHtVrUorW59wNHoyaAL8YW",
            "amount": 500000
        },
        {
            "address": "182WYwfYXsXtNPny2YEWDt51uFc67bVzgA",
            "amount": 500000
        },
        {
            "address": "1HheyVzndP6ygQkVjyeMmzwT6AvMVJvawr",
            "amount": 500000
        },
        {
            "address": "1L9iyMUpvdxBUDmcFLVapxrR5m8pXMSJ5s",
            "amount": 500000
        },
        {
            "address": "157CfERk2VFq8MuG5mKxajLr8EV13NBt9J",
            "amount": 500000
        },
        {
            "address": "1JT79Luj5QL34tpXbkhZr4YjaxgRjYNBA6",
            "amount": 500000
        },
        {
            "address": "1JiCvXZ1DQxrY3XPGoXqVmvPpKmKnbYGmQ",
            "amount": 500000
        },
        {
            "address": "1Ma3dpwnvfgo21kAnErsXpSpMxx7X74z4V",
            "amount": 500000
        },
        {
            "address": "1HwdrdH5gsCWWV18Eu3YhU11gYm9gNZ1tu",
            "amount": 500000
        },
        {
            "address": "14Ve9g5dzEZEgVmeUZP1jGWJo6J73Ktt6b",
            "amount": 500000
        },
        {
            "address": "17YtetzBLMvTBYyTS2aojLMowBeyK3gWAd",
            "amount": 500000
        },
        {
            "address": "1HkPfRM2EWqmjnpZW2pYGuywuW9EJSE7WK",
            "amount": 500000
        },
        {
            "address": "1HzEpGU93rGcp3fqco5aAL8dgWD4iKEmf3",
            "amount": 500000
        },
        {
            "address": "1CqySn9ZZmzGtBBQDcqt5LfeP7WexmSEVZ",
            "amount": 500000
        },
        {
            "address": "1EsRbdjqatCSohKqJ9jSkd575uutzEW8qm",
            "amount": 500000
        },
        {
            "address": "1DiPCTDgF4MWns7LAUn81TmbJG3Gb6w3bW",
            "amount": 500000
        },
        {
            "address": "14xjGpfTZWBz9cbjeWys1GyLgyvYeMZ2nw",
            "amount": 500000
        },
        {
            "address": "19NMXZNb1GVCrGdfSzDyCRkqGrxvYhzXyh",
            "amount": 500000
        },
        {
            "address": "1667ge2DbjtS89DAnCVNrx4ULzcLPbcyMe",
            "amount": 500000
        },
        {
            "address": "1AkMnEsei49UvSQrdWgjR1MescNrWeT6Vp",
            "amount": 500000
        },
        {
            "address": "1Hk7WV7ftRnBrjFrJ9bzWoxJHGUWK6t3HJ",
            "amount": 500000
        },
        {
            "address": "1BwyUxRap3sYJEteht2FwCmwQ5hM7vjHgH",
            "amount": 500000
        },
        {
            "address": "1PDucHnqg4iBTbf1g2c8VuNhgkUsjuMKvf",
            "amount": 500000
        },
        {
            "address": "1Bv9A4W3FHn95KshYMAEpTyaFtsjyJbVYb",
            "amount": 500000
        },
        {
            "address": "165U65uz2WKtv5m9imWtkdeFQhB1ANE4qm",
            "amount": 500000
        },
        {
            "address": "13KX9sZmouT9t1JWk95q5P6FucSNrXCk7f",
            "amount": 500000
        },
        {
            "address": "1H9PgxfN5asaXGmb3zWpxH4gt2z9kn5ZM8",
            "amount": 500000
        },
        {
            "address": "1EUzKjMjjmQjio3MCAkeaSTaioWZaaYHq3",
            "amount": 500000
        },
        {
            "address": "1N9xcSGNJTpVAtEsr9hFwzzDcZxkTobhd9",
            "amount": 500000
        },
        {
            "address": "18BQ6RkbrpYgtFVy73YpbYhxuix8yKmZ5Y",
            "amount": 500000
        },
        {
            "address": "1MUGEiS1CJYbdeaB695A1ZdJzaaU2HjU1G",
            "amount": 500000
        },
        {
            "address": "19Ag4SG78P4ogHMRHNGrHDMq5Rurwubdhp",
            "amount": 500000
        },
        {
            "address": "1QEraMu2dADSThV9MBnSN9D16VCaE1zgjW",
            "amount": 500000
        },
        {
            "address": "143rQ22ooo2N1yXoeZW2c6jYtW9kk8Nu9d",
            "amount": 500000
        },
        {
            "address": "1K3wmXprU1hoodvDgw2o8DYpn8QDoWRCpz",
            "amount": 500000
        },
        {
            "address": "1Nmw7eT8BKqh6fSiwmjkad4VqTLmAxQxeh",
            "amount": 500000
        },
        {
            "address": "1ET6Ddz6UrpiS5skCYLKDECVPRptMdEjzc",
            "amount": 500000
        },
        {
            "address": "1NEf399A1wSeqhpzjrSJC7VDQsPfxmzZkA",
            "amount": 500000
        },
        {
            "address": "1J7hUVxWV1stZFKUdHxuN65MU8BybPExVZ",
            "amount": 500000
        },
        {
            "address": "16Lm3RWzgiVvGt2mdhhQq4DqYx9FNmexdE",
            "amount": 500000
        },
        {
            "address": "1A7qqbQmhbPrYjxVGfg6xRVVWrUaizQ5mf",
            "amount": 500000
        },
        {
            "address": "1KR97AR5aTLBnxTrzt36SFYxEVhs67eTnE",
            "amount": 500000
        },
        {
            "address": "1D3ZgYxeNMnrsdXUKbjf2yYM12HerwxStn",
            "amount": 500000
        },
        {
            "address": "1BcrbY1Ke4JtE5ApFbU9w8sy5wMJLS2Tch",
            "amount": 500000
        },
        {
            "address": "1GAci3m529HWP1UVcQm129HUPB65hBU8u2",
            "amount": 500000
        },
        {
            "address": "13T1XJnthf29BhfcUAsgWqrDyzEPXHnrTW",
            "amount": 500000
        },
        {
            "address": "1BhggLVVhYCU2oX4LPNb15qEdfiuQBX8rc",
            "amount": 500000
        },
        {
            "address": "1A6ipuNLuFAaCU8XGe3WqHQq7sFDMrzpW4",
            "amount": 500000
        },
        {
            "address": "12qhwQzL5NkmjUWLVm9jxT1sTYuDqoLC6m",
            "amount": 500000
        },
        {
            "address": "1H3cybLsnwNw2UkztiUfac5nuESZCFQ2T3",
            "amount": 500000
        },
        {
            "address": "1CPKY2ZYsFPZBBSzH7K9aK23usNCahH9eY",
            "amount": 500000
        },
        {
            "address": "1P8xJDuk9xgGPAVsQTpEdEmM34TMTPXgFi",
            "amount": 500000
        },
        {
            "address": "1EYkpVM3tLYxtjCAcBtcT6n5uVqKEVqCYG",
            "amount": 500000
        },
        {
            "address": "1GYZhQrrLcP85JVRSV5Jq34YqMRGu8TfeM",
            "amount": 500000
        },
        {
            "address": "1P6ZEVzFFGpjsXxspNSwGbzdbEWAVUm13Y",
            "amount": 500000
        },
        {
            "address": "18EhLmzh8otgVYEC76gt3Tabc6UKjdzUqo",
            "amount": 500000
        },
        {
            "address": "13ocHp8SB5UTPi6bXoSEBiaMfDTj21pU9T",
            "amount": 500000
        },
        {
            "address": "1PUWnuUfy1MRGu9fLHxZWMxRgzTaCdMHDN",
            "amount": 500000
        },
        {
            "address": "1PnHr4jmikDZKxk1Cxv4DjKNChXyE4ZuCb",
            "amount": 500000
        },
        {
            "address": "1JNQXFCeBXTTA2vR6w3JTUo8HNPErcBhLt",
            "amount": 500000
        },
        {
            "address": "14enudc7KXCxBiZzcjMx26w45PLhVknttC",
            "amount": 500000
        },
        {
            "address": "1Lu6R4b81YigpuWLW4nFFBiQnUpKetuue4",
            "amount": 500000
        },
        {
            "address": "1L3FBeH9xMumEJtv6Szxpp2qBxwUUWDv8G",
            "amount": 500000
        },
        {
            "address": "1MhVUB7rtreRdpZyDYd2VP2MQbZfxrQVxo",
            "amount": 500000
        }
    ]
}